{
  "result": [
    {
      "id": "18414",
      "name": "УЛ.ТЕЛЬМАНА",
      "lat": 59.892467,
      "lon": 30.489882
    },
    {
      "id": "25628",
      "name": "Ст. метро \"Площадь Ленина\"",
      "lat": 59.95622,
      "lon": 30.355667
    },
    {
      "id": "27928",
      "name": "КРАСНОФЛОТСКАЯ РАЗВИЛКА",
      "lat": 59.96197,
      "lon": 29.309843
    },
    {
      "id": "16086",
      "name": "Ст. метро \"Удельная\"",
      "lat": 60.01674,
      "lon": 30.31859
    },
    {
      "id": "2533",
      "name": "56 КМ",
      "lat": 59.89063,
      "lon": 31.263168
    },
    {
      "id": "20010",
      "name": "ДЕР. ДЯТЛИЦЫ, МАГАЗИН",
      "lat": 59.69669,
      "lon": 29.65768
    },
    {
      "id": "19068",
      "name": "ЛЕВАШОВСКИЙ ПР., 2",
      "lat": 59.966377,
      "lon": 30.2985
    },
    {
      "id": "32552",
      "name": "ДАЛЬНЕВОСТОЧНЫЙ ПР., 12",
      "lat": 59.91395,
      "lon": 30.435055
    },
    {
      "id": "17133",
      "name": "ОТДЕЛЕНИЕ \"НОЙДОРФ\"",
      "lat": 59.84107,
      "lon": 30.00299
    },
    {
      "id": "4152",
      "name": "ШКИПЕРСКИЙ ПРОТОК,УГ. НАЛИЧНОЙ УЛ.",
      "lat": 59.934166,
      "lon": 30.235277
    },
    {
      "id": "25728",
      "name": "УЛ. ШАВРОВА (ПОСАДКИ И ВЫСАДКИ НЕТ)",
      "lat": 60.02502,
      "lon": 30.23523
    },
    {
      "id": "15194",
      "name": "Краснопутиловская ул.",
      "lat": 59.8478,
      "lon": 30.3129
    },
    {
      "id": "20568",
      "name": "АЛЕКСАНДРОВСКОЕ ШОССЕ, 5",
      "lat": 60.147762,
      "lon": 30.010765
    },
    {
      "id": "22761",
      "name": "ФИНЛЯНДСКИЙ ВОКЗАЛ",
      "lat": 59.95597,
      "lon": 30.355293
    },
    {
      "id": "22895",
      "name": "АЛЕКСАНДРОВСКАЯ, Ж.-Д. СТ.",
      "lat": 59.732353,
      "lon": 30.339066
    },
    {
      "id": "22901",
      "name": "ГРАЖДАНСКИЙ ПР.",
      "lat": 60.042324,
      "lon": 30.426558
    }
  ]
}
